City_ID,City,Lat,Lng,Max Temp,Humidity,Cloudiness,Wind Speed,Country,Date
0,san patricio,28.017,-97.5169,23.97,74,54,6.07,US,1738801052
1,kavaratti,10.5669,72.642,26.94,73,13,4.12,IN,1738801055
2,utrik,11.2278,169.8474,26.34,82,87,8.73,MH,1738801056
3,rio grande,-32.035,-52.0986,25.25,92,20,8.2,BR,1738801057
4,kuanda,56.3161,116.0806,-37.49,89,31,1.36,RU,1738801058
5,cabedelo,-6.9811,-34.8339,24.37,88,100,5.89,BR,1738800935
6,bethel,41.3712,-73.414,-2.83,52,0,0.45,US,1738801060
7,mulayjah,27.271,48.4242,19.87,10,100,6.6,SA,1738801063
8,adamstown,-25.066,-130.1015,25.43,76,4,6.59,PN,1738801064
9,waitangi,-43.9535,-176.5597,15.46,79,84,3.13,NZ,1738801065
10,edinburgh of the seven seas,-37.0676,-12.3116,18.92,95,66,10.45,SH,1738801066
11,afaahiti,-17.75,-149.2833,26.45,78,78,7.33,PF,1738801067
12,margaret river,-33.95,115.0667,21.23,69,0,7.04,AU,1738801068
13,campbellton,48.0075,-66.6727,-16.75,85,61,4.49,CA,1738801069
14,walvis bay,-22.9575,14.5053,17.71,90,98,3.34,NA,1738801070
15,puerto ayora,-0.7393,-90.3518,25.31,95,73,0.89,EC,1738801071
16,port alfred,-33.5906,26.891,18.99,99,100,1.34,ZA,1738801072
17,grytviken,-54.2811,-36.5092,1.41,98,100,7.47,GS,1738801073
18,puerto rosario,-24.45,-57.0833,28.75,58,79,2.55,PY,1738801074
19,klaksvik,62.2266,-6.589,8.42,82,100,19.51,FO,1738801076
20,camabatela,-8.1881,15.375,17.84,98,100,1.05,AO,1738801078
21,yanbu,24.0891,38.0637,19.02,68,0,5.14,SA,1738800872
22,namibe,-15.1961,12.1522,23.11,84,100,3.51,AO,1738801080
23,ishigaki,24.3448,124.1572,17.07,55,75,6.17,JP,1738801081
24,geraldton,-28.7667,114.6,25.23,78,100,5.66,AU,1738801082
25,albany,42.6001,-73.9662,-7.46,63,43,1.38,US,1738801084
26,kirkwall,58.9848,-2.9587,6.03,81,6,6.17,GB,1738800834
27,blackmans bay,-43.0167,147.3167,21.4,55,71,0.89,AU,1738801029
28,invercargill,-46.4,168.35,14.45,72,89,3.13,NZ,1738801069
29,eyl,7.9803,49.8164,21.47,77,23,6.78,SO,1738801089
30,aasiaat,68.7098,-52.8699,-29.17,100,75,2.36,GL,1738801090
31,gombong,-7.6072,109.5142,25.72,80,46,3.42,ID,1738801091
32,belmonte,-15.8631,-38.8828,25.43,85,100,2.95,BR,1738801092
33,nova sintra,14.8667,-24.7167,22.72,68,5,7.18,CV,1738801093
34,bela,25.9333,81.9833,10.66,48,0,4.14,IN,1738801094
35,sejenane,37.0572,9.2381,8.08,94,80,1.55,TN,1738801095
36,lompoc,34.6391,-120.4579,16.74,93,100,2.57,US,1738801096
37,hermanus,-34.4187,19.2345,14.33,71,88,3.18,ZA,1738801097
38,gobabis,-22.45,18.9667,21.42,69,93,7.8,NA,1738801098
39,saint-philippe,-21.3585,55.7679,26.98,85,39,2.55,RE,1738801099
40,college,64.8569,-147.8028,-7.74,80,100,0.0,US,1738801100
41,argamasilla de calatrava,38.7384,-4.015,5.79,63,0,0.68,ES,1738801101
42,olonkinbyen,70.9221,-8.7187,-1.63,99,91,16.54,SJ,1738801102
43,prineville,44.2999,-120.8345,2.39,77,0,4.12,US,1738800968
44,port-aux-francais,-49.35,70.2167,7.37,95,100,9.11,TF,1738801104
45,tralee,52.2704,-9.7026,2.75,90,1,2.41,IE,1738801106
46,iqaluit,63.7506,-68.5145,-29.15,69,40,2.57,CA,1738800902
47,xinyu,27.8043,114.9334,7.69,70,92,2.0,CN,1738801108
48,lazaro cardenas,17.9583,-102.2,27.28,61,0,3.35,MX,1738801109
49,bilibino,68.0546,166.4372,-40.44,94,7,0.82,RU,1738801110
50,shingu,33.7333,135.9833,2.58,51,8,5.96,JP,1738801111
51,yuzhno-kurilsk,44.0306,145.8556,-0.93,77,25,3.91,RU,1738801112
52,mar del plata,-38.0023,-57.5575,21.58,84,75,5.66,AR,1738800853
53,mount gambier,-37.8333,140.7667,23.71,49,7,1.86,AU,1738801114
54,kodiak,57.79,-152.4072,5.73,52,0,4.12,US,1738801115
55,puerto ayacucho,5.6639,-67.6236,28.12,64,70,3.66,VE,1738801116
56,bardai,11.65,7.2333,18.5,13,1,4.11,NG,1738801117
57,minas de marcona,-15.2119,-75.1103,19.64,73,96,5.71,PE,1738801118
58,whitehorse,60.7161,-135.0538,-17.57,85,75,3.09,CA,1738800724
59,el calafate,-50.3408,-72.2768,12.33,58,50,5.05,AR,1738801120
60,kristiansund,63.1115,7.732,6.36,65,40,7.2,NO,1738801121
61,watsa,3.0372,29.5355,20.61,52,100,0.67,CD,1738801122
62,ormond-by-the-sea,29.3491,-81.0665,21.05,91,0,2.57,US,1738801123
63,mantua,45.1667,10.7833,0.34,84,1,0.18,IT,1738801124
64,west island,-12.1568,96.8225,27.99,89,100,6.17,CC,1738801126
65,ialibu,-6.2821,143.9935,18.61,84,89,1.39,PG,1738801128
66,impfondo,1.6381,18.0667,25.27,65,87,0.9,CG,1738801129
67,vadso,70.0744,29.7487,-3.91,93,100,7.2,NO,1738801130
68,madalena,41.2162,-8.3345,8.32,71,83,1.64,PT,1738801131
69,cabo san lucas,22.8909,-109.9124,25.17,31,0,3.09,MX,1738800945
70,longyearbyen,78.2186,15.6401,0.91,51,20,7.2,SJ,1738801133
71,ilulissat,69.2167,-51.1,-23.99,58,8,6.17,GL,1738801134
72,avarua,-21.2078,-159.775,29.03,79,100,3.09,CK,1738800916
73,acarau,-2.8856,-40.12,25.35,86,97,3.46,BR,1738801136
74,paita,-5.0892,-81.1144,22.89,81,63,5.17,PE,1738801137
75,thompson,55.7435,-97.8558,-14.91,66,75,5.14,CA,1738801138
76,mount isa,-20.7333,139.5,28.87,70,75,3.09,AU,1738801139
77,tegueste,28.5167,-16.3167,14.99,83,75,5.81,ES,1738801140
78,pereslavl'-zalesskiy,56.7393,38.8563,-3.73,95,25,1.43,RU,1738801141
79,kone,-21.0595,164.8658,30.65,66,96,2.6,NC,1738801142
80,badger,64.8,-147.5333,-7.79,86,100,0.0,US,1738801144
81,angaur state,6.906,134.13,27.45,83,98,7.52,PW,1738801145
82,petropavlovsk-kamchatsky,53.0452,158.6483,-0.67,43,20,3.0,RU,1738801146
83,sankheda,22.1667,73.5833,17.32,33,0,3.31,IN,1738801147
84,port mathurin,-19.6833,63.4167,27.12,76,7,2.93,MU,1738801008
85,stanley,54.868,-1.6985,0.01,100,0,1.54,GB,1738801149
86,at taj,24.2049,23.2857,12.06,50,84,4.41,LY,1738800887
87,luderitz,-26.6481,15.1594,19.29,70,91,11.31,NA,1738801144
88,enoch,37.7733,-113.0244,13.14,43,20,6.17,US,1738801152
89,san antonio de pale,-1.4014,5.6325,27.77,78,100,2.91,GQ,1738801153
90,asaita,11.5636,41.4394,19.63,68,2,3.91,ET,1738801154
91,pahrump,36.2083,-115.9839,19.58,44,56,4.92,US,1738801134
92,soe,-9.8607,124.284,22.73,80,94,2.77,ID,1738801156
93,georgetown,5.4112,100.3354,26.96,78,20,2.06,MY,1738801132
94,sao joao da barra,-21.6403,-41.0511,25.2,84,0,9.16,BR,1738801158
95,lihue,21.9789,-159.3672,23.77,73,40,4.12,US,1738801160
96,cidreira,-30.1811,-50.2056,25.78,92,0,3.98,BR,1738801161
97,minas,-34.3759,-55.2377,18.73,93,100,6.99,UY,1738800866
98,narsimhapur,22.95,79.2,14.6,37,0,1.38,IN,1738801163
99,hami,42.8,93.45,-8.32,47,0,2.02,CN,1738801164
100,ulladulla,-35.35,150.4667,23.52,71,38,3.07,AU,1738801166
101,coahuayana de hidalgo,18.7,-103.6583,26.98,67,0,2.19,MX,1738801167
102,n'zeto,-7.2312,12.8666,26.28,86,78,3.48,AO,1738801168
103,las khorey,11.1595,48.1967,21.58,74,3,3.88,SO,1738801169
104,am timan,11.0297,20.2827,26.07,19,59,2.98,TD,1738801170
105,horta,38.5333,-28.6333,17.23,95,59,7.15,PT,1738801171
106,chegdomyn,51.1167,133.0167,-15.27,89,100,1.66,RU,1738801172
107,ust-nera,64.5667,143.2,-40.1,98,65,1.55,RU,1738801173
108,carnarvon,-24.8667,113.6333,27.31,71,14,7.65,AU,1738801174
109,omdurman,15.6445,32.4777,23.92,15,0,8.38,SD,1738801175
110,alo,6.5486,4.2686,26.59,87,58,2.19,NG,1738801176
111,enewetak,11.3474,162.3373,26.93,74,96,7.02,MH,1738801177
112,les anglais,18.3054,-74.2197,23.55,75,81,0.38,HT,1738801179
113,ribeira grande,38.5167,-28.7,17.65,95,59,7.15,PT,1738801180
114,ambovombe,-25.1667,46.0833,24.02,90,9,1.53,MG,1738801181
115,kalabo,-14.97,22.6814,19.21,98,100,1.7,ZM,1738801182
116,qaqortoq,60.7167,-46.0333,-23.45,80,4,3.92,GL,1738801183
117,vorgashor,67.5833,63.95,-14.06,97,99,3.41,RU,1738801186
118,east london,-33.0153,27.9116,21.43,89,100,5.23,ZA,1738800917
119,isafjordur,66.0755,-23.124,1.28,83,83,22.87,IS,1738801188
120,bredasdorp,-34.5322,20.0403,17.69,53,100,2.01,ZA,1738801189
121,arno,60.1167,18.6333,0.86,82,45,2.72,SE,1738801190
122,weno,7.4515,151.8468,27.97,89,100,4.63,FM,1738801071
123,solleftea,63.1667,17.2667,-4.08,84,9,2.66,SE,1738801193
124,hammerfest,70.6634,23.6821,3.25,75,75,9.77,NO,1738801194
125,taksimo,56.3444,114.8794,-34.15,87,25,1.29,RU,1738801195
126,hailar,49.2,119.7,-33.68,100,100,1.57,CN,1738801057
127,tazovsky,67.4667,78.7,-18.78,97,67,3.04,RU,1738801197
128,punaauia,-17.6333,-149.6,27.8,74,75,4.12,PF,1738801199
129,morehead city,34.7229,-76.726,9.0,78,100,6.69,US,1738801200
130,east end,34.5507,-92.341,18.73,98,100,3.22,US,1738801201
131,kedrovyy,56.1667,91.8167,-19.91,99,100,2.44,RU,1738801203
132,banjarmasin,-3.3244,114.591,27.08,92,100,1.62,ID,1738800928
133,saint-pierre,-21.3393,55.4781,26.82,78,75,2.57,RE,1738801205
134,point pedro,9.8167,80.2333,25.83,70,37,4.93,LK,1738801206
135,chonchi,-42.6128,-73.8092,13.95,80,87,2.34,CL,1738801207
136,ushuaia,-54.8,-68.3,11.81,58,20,1.03,AR,1738801208
137,selfoss,63.9331,-20.9971,6.14,77,100,20.21,IS,1738801209
138,nuuk,64.1835,-51.7216,-13.66,66,75,3.09,GL,1738801211
139,iskateley,67.6803,53.1512,-8.03,90,87,8.03,RU,1738801001
140,yellowknife,62.456,-114.3525,-6.44,90,75,8.23,CA,1738800914
141,atafu village,-8.5421,-172.5159,28.73,72,35,7.05,TK,1738801214
142,saudarkrokur,65.7461,-19.6394,4.01,78,90,20.55,IS,1738801215
143,kapuskasing,49.4169,-82.4331,-11.95,67,20,3.09,CA,1738801216
144,polyarnyy,69.1989,33.4478,-5.82,83,87,10.16,RU,1738801217
145,tromso,69.6496,18.957,1.01,86,75,7.2,NO,1738801218
146,tiksi,71.6872,128.8694,-29.27,97,100,3.12,RU,1738801219
147,ust'-barguzin,53.45,108.9833,-27.24,100,95,0.52,RU,1738801220
148,dryden,49.7833,-92.7503,-12.84,56,100,2.06,CA,1738801221
149,khandyga,62.6667,135.6,-43.13,100,51,0.46,RU,1738801223
150,yemetsk,63.4721,41.7941,-9.62,95,100,3.42,RU,1738801225
151,taroa,8.7058,171.2275,26.73,84,81,9.66,MH,1738801226
152,hawaiian paradise park,19.5933,-154.9731,25.73,74,0,5.14,US,1738801228
153,sarina,-21.4333,149.2167,24.23,92,100,1.81,AU,1738801229
154,la baneza,42.3003,-5.8977,2.97,78,7,1.14,ES,1738801230
155,bereznik,62.8551,42.7072,-8.9,97,100,2.46,RU,1738801231
156,pajok,3.8651,32.4821,23.87,28,99,1.15,SS,1738801146
157,flying fish cove,-10.4217,105.6791,26.82,94,100,6.17,CX,1738801233
158,saipan,15.1355,145.701,31.39,70,20,7.72,MP,1738801235
159,new norfolk,-42.7826,147.0587,22.62,43,59,1.15,AU,1738801236
160,papatowai,-46.5619,169.4708,14.67,56,71,3.06,NZ,1738801238
161,leava,-14.3,-178.1667,28.58,70,96,2.7,WF,1738801239
162,vilyuchinsk,52.9306,158.4028,0.15,78,100,6.39,RU,1738801240
163,urucui,-7.2294,-44.5561,27.27,60,86,1.8,BR,1738801242
164,mejit,10.2753,170.8646,26.44,84,95,9.66,MH,1738801243
165,jamestown,42.097,-79.2353,-5.2,69,0,3.6,US,1738801089
166,greenville,35.6127,-77.3663,7.29,71,100,3.13,US,1738801087
167,lerwick,60.1545,-1.1494,7.28,84,9,10.89,GB,1738801246
168,inari,68.906,27.0288,-2.81,85,100,3.8,FI,1738801248
169,lascano,-33.6667,-54.2,23.32,94,98,5.02,UY,1738801249
170,gizo,-8.103,156.8419,28.83,72,100,4.08,SB,1738801250
171,ploneour-lanvern,47.9,-4.2833,6.18,87,0,2.57,FR,1738801251
172,ermelo,-26.5333,29.9833,16.5,98,86,4.37,ZA,1738801252
173,moose jaw,50.4001,-105.5344,-18.86,84,100,8.75,CA,1738801253
174,puerto natales,-51.7236,-72.4875,10.09,92,100,2.24,CL,1738801059
175,undurkhaan,47.3194,110.6556,-24.41,65,72,8.04,MN,1738801255
176,callao,-12.0667,-77.15,27.07,83,0,5.66,PE,1738801256
177,tamiahua,21.2667,-97.45,22.91,86,4,2.77,MX,1738801258
178,lewiston orchards,46.3804,-116.9754,-0.83,86,75,2.57,US,1738801259
179,ruteng,-8.6136,120.4721,20.88,84,100,0.42,ID,1738801260
180,oodweyne,9.4092,45.064,16.88,53,53,1.79,SO,1738801261
181,whitecourt,54.1502,-115.6855,-17.42,65,40,3.6,CA,1738801262
182,algona,43.07,-94.233,-3.95,100,75,4.63,US,1738801263
183,nouadhibou,20.931,-17.0347,16.99,72,0,9.26,MR,1738801264
184,chui,-33.6971,-53.4616,23.29,92,97,6.89,UY,1738801265
185,mursan,27.5833,77.9333,9.03,38,0,2.84,IN,1738801266
186,guerrero negro,27.9769,-114.0611,16.44,72,0,6.87,MX,1738801267
187,chernomorskoye,45.5039,32.6997,1.76,60,99,6.3,UA,1738801268
188,hamilton,39.1834,-84.5333,1.07,92,100,4.63,US,1738800846
189,talnakh,69.4865,88.3972,-24.0,100,90,3.39,RU,1738801271
190,raduzhny,62.0961,77.475,-18.21,100,91,1.58,RU,1738801272
191,howrah,22.5892,88.3103,21.0,94,33,0.0,IN,1738801269
192,aykhal,66.0,111.5,-22.81,98,99,2.32,RU,1738801274
193,udachny,66.4167,112.4,-23.22,99,100,2.02,RU,1738801152
194,ciudad bolivar,8.1222,-63.5497,27.71,60,58,5.45,VE,1738801247
195,bereket,39.2446,55.5154,5.26,59,79,5.01,TM,1738801277
196,camiri,-20.05,-63.5167,24.98,53,17,1.81,BO,1738801280
197,karratha,-20.7377,116.8463,31.59,63,58,2.9,AU,1738801281
198,dakhla,23.6848,-15.958,16.69,86,0,8.92,EH,1738801282
199,kota,25.1833,75.8333,11.37,35,0,1.45,IN,1738801285
200,rethymno,35.3647,24.4714,9.2,73,100,11.87,GR,1738801223
201,suntar,62.1444,117.6319,-46.28,100,61,1.31,RU,1738801288
202,gadzhiyevo,69.2551,33.3362,-5.9,85,88,10.0,RU,1738801289
203,arraial do cabo,-22.9661,-42.0278,24.98,88,0,5.66,BR,1738801013
204,dondo,-19.6094,34.7431,21.93,90,26,0.58,MZ,1738801292
205,egilsstadir,65.2653,-14.3948,8.95,61,75,11.83,IS,1738801002
206,la rinconada,37.4873,-5.9826,10.74,74,1,1.9,ES,1738801294
207,portland,45.5234,-122.6762,4.23,93,100,3.6,US,1738800462
208,punta arenas,-53.15,-70.9167,12.06,66,100,3.09,CL,1738801007
209,klyuchi,52.2667,79.1667,-16.91,82,3,5.29,RU,1738801297
210,pisco,-13.7,-76.2167,23.03,83,75,6.69,PE,1738801153
211,brooks,50.5834,-111.8851,-21.01,65,100,5.14,CA,1738801200
212,hafar al-batin,28.4328,45.9708,15.32,55,40,5.14,SA,1738801300
213,otjiwarongo,-20.4637,16.6477,18.45,89,94,2.02,NA,1738801301
214,princeton,25.5384,-80.4089,23.34,82,20,3.6,US,1738801102
215,fortaleza,-3.7227,-38.5247,28.07,78,20,4.12,BR,1738800925
216,hadibu,12.65,54.0333,21.86,72,7,4.11,YE,1738801305
217,san luis de la loma,17.2706,-100.8939,27.41,62,0,2.55,MX,1738801306
218,as sulayyil,20.4607,45.5779,15.05,13,40,3.42,SA,1738801308
219,johi,26.6921,67.6133,14.39,19,0,2.81,PK,1738801309
220,bantay,17.5847,120.3892,24.65,67,100,2.31,PH,1738801311
221,trevelin,-43.0858,-71.4639,12.06,75,61,3.0,AR,1738801312
222,kingston,17.997,-76.7936,27.53,51,20,3.6,JM,1738801017
223,el charco,2.4769,-78.1105,23.93,95,77,1.85,CO,1738801314
224,urangan,-25.3,152.9,25.16,79,100,4.91,AU,1738801315
225,jalai nur,49.45,117.7,-21.66,89,100,3.98,CN,1738801316
226,terekli-mekteb,44.1671,45.8698,1.13,90,100,4.58,RU,1738801317
227,kourou,5.1552,-52.6478,24.18,94,95,3.18,GF,1738801318
228,lebu,-37.6167,-73.65,16.25,92,4,5.89,CL,1738801319
229,anadyr,64.75,177.4833,-36.67,65,0,5.0,RU,1738801117
230,haiku-pauwela,20.9219,-156.3051,23.98,78,40,8.05,US,1738801321
231,ouddorp,51.8117,3.9347,3.88,94,100,3.52,NL,1738801323
232,la passe,45.5549,-0.8967,6.6,83,83,5.64,FR,1738801092
233,paranaiba,-19.6772,-51.1908,22.6,85,99,2.15,BR,1738801325
234,sayan,-11.1361,-77.1933,22.36,79,100,1.92,PE,1738801326
235,enriquillo,17.9,-71.2333,23.03,88,42,5.41,DO,1738801327
236,mugia,43.1041,-9.2179,8.84,79,100,1.61,ES,1738801328
237,taltal,-25.4,-70.4833,19.77,84,34,1.44,CL,1738801129
238,tsiombe,-25.3,45.4833,24.4,97,38,2.09,MG,1738801330
239,tommot,58.9564,126.2925,-42.81,100,98,0.27,RU,1738801331
240,beau vallon,-20.4189,57.6953,26.13,89,20,1.54,MU,1738801332
241,mili,6.0815,171.735,27.05,83,72,10.11,MH,1738801333
242,bandarbeyla,9.4942,50.8122,22.93,74,61,6.54,SO,1738801334
243,westport,41.1415,-73.3579,-1.1,50,0,2.06,US,1738801335
244,buka,40.8108,69.1986,4.24,49,100,0.33,UZ,1738801336
245,sihanoukville,10.6093,103.5296,22.97,94,40,1.03,KH,1738801337
246,howard springs,-12.497,131.047,28.32,93,96,4.45,AU,1738801338
247,ola,59.5833,151.2833,-20.9,78,6,4.0,RU,1738801340
248,porto murtinho,-21.6989,-57.8825,29.83,57,14,5.24,BR,1738801341
249,wanning,18.8003,110.3967,19.36,85,86,1.78,CN,1738801342
250,timbiqui,2.7717,-77.6654,24.21,93,93,1.72,CO,1738801343
251,handan,36.6006,114.4678,-0.63,23,50,1.98,CN,1738801344
252,seguela,7.9611,-6.6731,24.93,23,20,1.33,CI,1738801345
253,yusufeli,40.8204,41.5443,0.93,95,100,1.67,TR,1738801346
254,fort mcmurray,56.7268,-111.381,-14.23,72,100,5.66,CA,1738801347
255,urengoy,65.9667,78.3667,-19.76,100,91,2.82,RU,1738801349
256,kapa'a,22.0752,-159.319,24.18,75,40,4.12,US,1738801350
257,ome,35.7839,139.2431,4.59,22,0,1.54,JP,1738801352
258,nelson,-41.2833,173.2833,21.27,83,100,0.45,NZ,1738801353
259,high river,50.5834,-113.8687,-19.83,85,100,2.08,CA,1738801354
260,corralillo,22.9819,-80.5856,22.9,73,3,6.27,CU,1738801355
261,jayapura,-2.5333,140.7,26.66,92,100,1.23,ID,1738801356
262,nemuro,43.3236,145.575,0.55,79,11,6.28,JP,1738801358
263,gupitan,7.7758,125.6406,22.2,98,100,1.65,PH,1738801359
264,kpandu,6.9954,0.2931,26.5,71,12,3.68,GH,1738801360
265,quellon,-43.1167,-73.6167,13.56,78,92,4.96,CL,1738801361
266,borogontsy,62.6683,131.1683,-43.16,100,54,1.34,RU,1738801362
267,svetlograd,45.3353,42.8547,-1.49,93,99,4.29,RU,1738801363
268,salalah,17.0151,54.0924,20.05,73,75,2.57,OM,1738801365
269,hasaki,35.7333,140.8333,4.66,32,0,7.15,JP,1738801366
270,baruun-urt,46.6806,113.2792,-23.7,86,96,6.81,MN,1738801367
271,muravlenko,63.7898,74.523,-14.92,98,98,3.72,RU,1738801368
272,erenhot,43.6475,111.9767,-18.71,72,100,7.79,CN,1738801370
273,ziniare,12.5822,-1.2983,24.3,17,20,3.99,BF,1738801371
274,salinopolis,-0.6136,-47.3561,26.23,83,92,4.5,BR,1738801372
275,wenatchee,47.4235,-120.3103,-3.86,72,100,2.06,US,1738801373
276,saint-louis,16.3333,-15.0,19.99,13,1,4.43,SN,1738801214
277,rouissat,31.9243,5.3502,9.04,71,0,2.06,DZ,1738801375
278,abbeville,50.1,1.8333,1.94,85,100,1.43,FR,1738801376
279,taunggyi,20.7833,97.0333,10.61,75,4,0.49,MM,1738801377
280,artesia,33.8658,-118.0831,20.19,71,40,0.89,US,1738801286
281,joetsu,37.1483,138.2364,-1.05,95,99,10.69,JP,1738801380
282,tashtyp,52.7939,89.8983,-21.22,98,79,0.53,RU,1738801381
283,taoudenni,22.6783,-3.9836,16.14,18,0,5.66,ML,1738801382
284,necochea,-38.5473,-58.7368,18.67,69,67,4.67,AR,1738801204
285,wailua homesteads,22.0669,-159.378,23.44,75,40,4.12,US,1738801384
286,ternate,0.8,127.4,27.26,80,100,3.45,ID,1738801385
287,poronaysk,49.2167,143.1167,-1.93,87,63,5.15,RU,1738801387
288,sparta,43.9441,-90.8129,-2.22,63,100,2.57,US,1738801273
289,north liberty,41.7492,-91.598,-1.8,92,100,5.14,US,1738801389
290,coquimbo,-29.9533,-71.3436,18.85,77,0,2.06,CL,1738800797
291,sidi okba,34.7451,5.8983,12.16,62,40,2.06,DZ,1738801392
292,constantia,44.1833,28.65,-2.39,65,12,6.01,RO,1738801393
293,diez,50.3667,8.0167,1.54,96,88,1.16,DE,1738801394
294,bayambang,15.7833,120.4333,24.85,68,88,3.64,PH,1738801395
295,hai duong,20.9333,106.3167,16.02,82,100,0.68,VN,1738801396
296,mwadui,-3.55,33.6,18.48,93,96,2.79,TZ,1738801397
297,hotan,37.0997,79.9269,-2.81,47,100,1.06,CN,1738801398
298,paysandu,-32.3214,-58.0756,21.83,79,89,1.28,UY,1738801399
299,vernon,50.2581,-119.2691,-10.26,46,22,2.24,CA,1738801400
300,nadi,-17.8,177.4167,29.0,74,40,6.17,FJ,1738801401
301,nizhneangarsk,55.7833,109.55,-31.25,77,72,2.26,RU,1738801402
302,ventspils,57.3894,21.5606,4.96,93,75,3.6,LV,1738801403
303,balqash,46.8481,74.995,-14.74,78,0,6.93,KZ,1738801404
304,kyshtovka,56.555,76.6271,-21.76,100,100,2.17,RU,1738801405
305,chashniki,54.8569,29.1607,-5.07,89,85,1.08,BY,1738801408
306,mosjoen,65.836,13.1908,3.29,81,75,1.54,NO,1738801409
307,marienberg,50.65,13.1667,0.33,92,98,1.45,DE,1738801410
308,nyasvizh,53.2181,26.6725,-2.4,63,99,1.38,BY,1738801411
309,georgievka,49.3314,81.5761,-26.45,100,19,1.26,KZ,1738801175
310,ouani,-12.1322,44.4258,27.04,80,97,7.46,KM,1738801413
311,jatai,-17.8814,-51.7144,20.04,94,100,1.7,BR,1738801140
312,turi,40.9173,17.0212,6.15,87,0,1.54,IT,1738801415
313,itoman,26.1247,127.6694,15.22,61,75,2.06,JP,1738801417
314,codrington,-38.2667,141.9667,23.31,54,46,2.91,AU,1738801418
315,songea,-10.6833,35.65,18.35,98,100,0.4,TZ,1738801419
316,sirjan,29.452,55.6814,6.48,33,67,5.44,IR,1738801421
317,mlimba,-8.8,35.8167,22.56,96,100,0.91,TZ,1738801422
318,gavrilov posad,56.5597,40.1175,-3.99,92,19,1.71,RU,1738801423
319,egersund,58.4513,5.9997,3.55,89,29,2.75,NO,1738801425
320,mahanoro,-19.9,48.8,25.4,86,100,2.65,MG,1738801426
321,serowe,-22.3833,26.7167,23.01,52,16,2.51,BW,1738801427
322,hithadhoo,-0.6,73.0833,27.51,67,24,5.58,MV,1738801428
323,flin flon,54.7682,-101.865,-19.09,78,75,2.57,CA,1738801429
324,whitby,54.4877,-0.615,2.3,81,0,2.86,GB,1738801430
325,hebi,35.8992,114.1925,0.45,26,87,2.57,CN,1738801431
326,salekhard,66.53,66.6019,-15.82,95,100,3.06,RU,1738801432
327,de aar,-30.6497,24.0123,18.44,66,80,6.44,ZA,1738801433
328,puerto san jose,13.9256,-90.8244,30.03,68,0,3.09,GT,1738801434
329,ancud,-41.8697,-73.8203,13.92,81,100,3.74,CL,1738801258
330,crane,31.3974,-102.3501,25.49,21,0,1.42,US,1738801437
331,fort bragg,35.139,-79.006,8.91,73,100,4.12,US,1738801438
332,noumea,-22.2763,166.4572,30.57,99,96,0.83,NC,1738801439
333,peace river,56.2501,-117.286,-20.83,84,100,4.12,CA,1738801440
334,myeik,12.4333,98.6,24.2,89,53,3.28,MM,1738801442
335,uturoa,-16.7333,-151.4333,27.93,74,89,5.41,PF,1738801443
336,nema,57.5067,50.5011,-15.96,98,95,1.62,RU,1738801444
337,ylitornio,66.3089,23.6773,-7.76,87,45,2.13,FI,1738801445
338,faro,37.0194,-7.9322,11.88,62,0,2.57,PT,1738801446
339,argo,37.6333,22.7333,5.08,73,0,1.59,GR,1738801447
340,cannonvale,-20.2833,148.7,23.66,93,100,4.93,AU,1738801448
341,provins,48.5833,3.1667,2.36,94,54,2.74,FR,1738801449
342,kloulklubed,7.0419,134.2556,27.49,84,98,7.97,PW,1738801451
343,pacific grove,36.6177,-121.9166,13.57,77,0,5.81,US,1738801452
344,bikenibeu village,1.3673,173.1241,26.88,83,48,5.85,KI,1738801453
345,mount pearl,47.5166,-52.7813,-9.92,70,75,9.77,CA,1738801454
346,acapulco de juarez,16.8634,-99.8901,28.9,65,75,5.14,MX,1738801455
347,boguchany,58.3814,97.4531,-16.43,98,100,1.57,RU,1738801456
348,el alto,-4.2714,-81.2147,22.3,77,33,4.5,PE,1738801457
349,port lincoln,-34.7333,135.8667,20.8,68,0,3.39,AU,1738801159
350,mokhsogollokh,61.4681,128.9203,-42.84,100,68,1.5,RU,1738801460
351,porto novo,6.4965,2.6036,28.9,85,63,3.11,BJ,1738801301
352,villa gesell,-37.2639,-56.973,19.22,77,100,7.86,AR,1738801462
353,la sarre,48.8002,-79.1996,-13.46,88,67,3.71,CA,1738801199
354,susuman,62.7833,148.1667,-41.77,95,68,0.27,RU,1738801343
355,carutapera,-1.195,-46.02,24.88,90,100,2.71,BR,1738801465
356,piqua,40.1448,-84.2424,0.29,88,100,5.08,US,1738801466
357,puerto lleras,3.0223,-73.4044,28.69,49,78,0.69,CO,1738801467
358,fortuna,40.5982,-124.1573,8.85,88,75,5.66,US,1738801468
359,cheremshan,54.6667,51.5,-8.7,85,83,4.32,RU,1738801280
360,laojunmiao,39.8333,97.7333,-11.77,40,42,2.76,CN,1738801470
361,cururupu,-1.8283,-44.8683,23.01,99,49,0.69,BR,1738801472
362,poso,-1.3959,120.7524,26.34,81,100,1.06,ID,1738801474
363,berber,18.0216,33.983,21.15,18,1,8.56,SD,1738801475
364,cova figueira,14.8905,-24.2934,15.57,67,2,7.69,CV,1738801476
365,sitka,57.0531,-135.33,4.94,52,0,0.0,US,1738801204
366,pasni,25.2631,63.471,18.87,37,0,2.92,PK,1738801478
367,igarka,67.4667,86.5833,-20.87,99,97,1.49,RU,1738801479
368,darlowo,54.421,16.4107,3.66,90,17,4.18,PL,1738801480
369,padang,-0.9492,100.3543,24.03,86,86,2.37,ID,1738801481
370,port augusta,-32.5,137.7667,29.37,37,0,1.57,AU,1738801482
371,motygino,58.1831,94.7592,-24.25,100,98,0.88,RU,1738801286
372,coronado,32.6859,-117.1831,20.7,68,20,5.66,US,1738801469
373,ribeira brava,32.65,-17.0667,17.35,79,23,3.28,PT,1738801485
374,nandurbar,21.3667,74.25,19.65,32,0,3.52,IN,1738801486
375,priozersk,61.0393,30.1291,-2.17,87,100,4.53,RU,1738801488
376,lorengau,-2.0226,147.2712,28.2,79,96,3.01,PG,1738801489
377,port shepstone,-30.7414,30.455,23.39,89,100,6.05,ZA,1738801490
378,sakaiminato,35.55,133.2333,-0.01,86,75,7.2,JP,1738801491
379,crookston,47.7741,-96.6081,-8.94,86,100,3.6,US,1738801492
380,qulsary,46.9531,54.0198,-4.65,86,15,6.27,KZ,1738801493
381,belyy yar,53.6039,91.3903,-13.06,92,85,0.0,RU,1738801494
382,barra de santo antonio,-9.4047,-35.5072,26.09,83,100,5.48,BR,1738801495
383,al bardiyah,31.7561,25.0865,12.63,58,92,7.81,LY,1738801496
384,juneau,58.3019,-134.4197,0.23,100,56,2.37,US,1738801497
385,opuwo,-18.0607,13.84,20.7,84,100,1.01,NA,1738801498
386,altai,46.3722,96.2583,-22.73,83,18,2.0,MN,1738801499
387,st. john's,47.5649,-52.7093,-9.46,69,75,9.77,CA,1738801500
388,skelleftea,64.7507,20.9528,-3.8,100,28,2.06,SE,1738801501
389,kill devil hills,36.0307,-75.676,7.21,83,100,9.26,US,1738801502
390,okha,53.5739,142.9478,-2.58,87,100,11.98,RU,1738801252
391,san rafael,-34.6177,-68.3301,29.53,19,0,3.56,AR,1738801504
392,tolanaro,-25.0319,46.9987,24.04,100,40,3.09,MG,1738801505
393,kotwa,25.0167,81.3167,11.51,43,0,2.37,IN,1738801506
394,brisas de zicatela,15.8369,-97.0419,29.29,61,20,1.54,MX,1738801508
395,cottage grove,44.8277,-92.9438,-4.86,70,100,4.63,US,1738801501
396,batyrevo,55.0675,47.6111,-9.03,96,89,2.34,RU,1738801510
397,ouadda,8.0777,22.4007,22.36,26,75,2.18,CF,1738801511
398,duong dong,10.2167,103.9667,24.0,88,20,0.0,VN,1738801512
399,kailua-kona,19.6406,-155.9956,27.17,67,0,3.6,US,1738801513
400,tarakan,3.3,117.6333,26.72,94,40,0.51,ID,1738801514
401,mossel bay,-34.1831,22.146,19.1,62,95,2.34,ZA,1738801515
402,margate,51.3813,1.3862,5.94,82,100,0.45,GB,1738801516
403,coronel dorrego,-38.7187,-61.2873,21.84,57,19,6.38,AR,1738801500
404,fale old settlement,-9.3852,-171.2468,28.56,73,81,7.26,TK,1738801518
405,antsiranana,-12.2787,49.2917,24.39,88,100,2.52,MG,1738801519
406,banda aceh,5.5577,95.3222,24.63,84,48,4.42,ID,1738801520
407,gatton,-27.55,152.2833,27.34,55,35,3.53,AU,1738801521
408,queenstown,-31.8976,26.8753,15.02,86,100,1.85,ZA,1738801515
409,broken hill,-31.95,141.4333,32.59,36,0,5.79,AU,1738801373
410,saint cloud,45.5608,-94.1625,-7.01,74,100,4.12,US,1738801366
411,bairnsdale,-37.8333,147.6167,25.59,73,59,1.34,AU,1738801525
412,sisimiut,66.9395,-53.6735,-22.58,93,92,1.6,GL,1738801526
413,felege neway,6.3,36.8833,18.48,36,81,0.97,ET,1738801528
414,paulden,34.8856,-112.4682,18.72,21,0,3.13,US,1738801529
415,aoulef,26.9667,1.0833,13.1,29,0,6.72,DZ,1738801530
416,tshabong,-26.05,22.45,26.34,40,24,5.82,BW,1738801531
417,lagos,6.5833,3.75,26.21,88,37,1.33,NG,1738801241
418,aigio,38.2486,22.0819,9.56,57,3,4.03,GR,1738801533
419,slupsk,54.4641,17.0287,1.94,94,40,3.23,PL,1738801534
420,pueblo nuevo,23.3833,-105.3833,16.52,31,0,2.18,MX,1738801535
421,menomonie,44.8755,-91.9193,-3.98,63,100,4.63,US,1738801537
422,sefwi wiawso,6.2044,-2.4886,22.17,94,28,0.4,GH,1738801538
423,bouna,9.2667,-3.0,25.67,17,40,2.06,CI,1738801540
424,peymeinade,43.6333,6.8833,8.16,67,3,1.73,FR,1738801541
425,pionerskiy,54.9508,20.2275,3.91,93,89,5.83,RU,1738801542
426,attleborough,52.5129,-1.4549,0.99,94,16,0.45,GB,1738801543
427,kavieng,-2.5744,150.7967,29.08,68,100,3.79,PG,1738801544
428,la fleche,47.6982,-0.0755,4.4,95,82,2.83,FR,1738801545
429,mazabuka,-15.856,27.748,18.46,95,99,2.04,ZM,1738801546
430,ntungamo,-0.8833,29.65,19.5,59,99,0.74,UG,1738801547
431,huarmey,-10.0681,-78.1522,23.1,77,88,2.64,PE,1738801549
432,alotau,-10.3069,150.4462,29.46,70,97,4.6,PG,1738801550
433,yeed,4.55,43.0333,25.28,44,98,4.93,SO,1738801551
434,catio,11.2833,-15.25,23.59,38,100,2.46,GW,1738801552
435,palikir - national government center,6.9248,158.1611,30.41,70,40,5.14,FM,1738801553
436,salym,60.0625,71.4789,-5.62,97,100,1.3,RU,1738801554
437,akureyri,65.6835,-18.0878,7.96,49,100,14.4,IS,1738801335
438,swakopmund,-22.6833,14.5333,18.32,87,98,3.13,NA,1738801557
439,eenhana,-17.4667,16.3333,20.98,81,100,0.39,NA,1738801558
440,cerro de ortega,18.75,-103.7667,26.95,67,0,2.31,MX,1738801559
441,starnberg,48.0,11.35,-0.27,94,100,1.03,DE,1738801561
442,kodinsk,58.6881,99.1844,-16.44,97,100,1.16,RU,1738801563
443,inhambane,-23.865,35.3833,24.25,76,1,3.13,MZ,1738801564
444,ghadamis,30.1337,9.5007,10.33,41,7,5.64,LY,1738801565
445,tateyama,34.9833,139.8667,4.82,50,77,10.15,JP,1738801566
446,port elizabeth,-33.918,25.5701,20.17,94,95,3.37,ZA,1738801568
447,miri,4.4148,114.0089,25.08,94,40,3.09,MY,1738801570
448,coxim,-18.5067,-54.76,24.15,89,100,1.74,BR,1738801571
449,limassol,34.675,33.0333,7.04,70,0,1.54,CY,1738801572
450,tbilisi,41.6941,44.8337,3.84,87,100,2.06,GE,1738801573
451,pachino,36.7186,15.0907,12.53,73,87,4.08,IT,1738801574
452,playa del ingles,27.7567,-15.5787,17.86,71,0,3.02,ES,1738801575
453,colchani,-20.3,-66.9333,16.23,24,2,7.59,BO,1738801576
454,genhe,50.7833,121.5167,-26.62,96,70,1.81,CN,1738801578
455,bukama,-9.2,25.85,21.22,97,100,0.73,CD,1738801579
456,tura,25.5198,90.2201,14.92,71,1,1.89,IN,1738801580
457,san julian,21.0167,-102.1667,23.59,17,7,3.99,MX,1738801581
458,el nido,11.1858,119.3956,25.08,92,44,4.17,PH,1738801583
459,port douglas,-16.4833,145.4667,29.09,74,99,1.19,AU,1738801584
460,el abiodh sidi cheikh,32.893,0.5484,7.75,57,74,2.45,DZ,1738801585
461,gamba,-2.65,10.0,25.97,85,94,1.9,GA,1738801587
462,gazli,40.1333,63.45,3.77,57,8,4.64,UZ,1738801588
463,spas-klepiki,55.1347,40.1767,-3.27,90,90,2.1,RU,1738801589
464,urzhar,47.093,81.6294,-14.93,70,0,2.83,KZ,1738801590
465,ulanhot,46.0833,122.0833,-19.29,89,100,1.48,CN,1738801591
466,colonia,50.9333,6.95,3.86,90,100,2.06,DE,1738801448
467,holualoa,19.6228,-155.9522,25.1,67,0,3.6,US,1738801594
468,broome,42.2506,-75.833,-6.3,71,0,2.06,US,1738801595
469,limon,10.0,-83.0333,25.2,82,16,2.2,CR,1738801596
470,dhuusamarreeb,5.535,46.3861,21.17,82,7,6.32,SO,1738801597
471,sao pedro do piaui,-5.9294,-42.7186,25.23,70,92,1.05,BR,1738801598
472,yangambi,0.8102,24.4336,22.94,70,98,0.89,CD,1738801599
473,tarauaca,-8.1614,-70.7656,23.14,98,97,1.38,BR,1738801601
474,san jose del guaviare,2.5729,-72.6459,28.24,50,48,1.12,CO,1738801602
475,ambalavao,-21.8333,46.9333,19.97,96,100,0.9,MG,1738801363
476,qamdo,31.1667,97.2333,-5.87,72,3,2.65,CN,1738801604
477,malango,-2.9627,119.9001,22.63,79,100,0.94,ID,1738801605
478,valdivia,-39.8142,-73.2459,17.05,86,8,2.2,CL,1738801606
479,kondoa,-4.9,35.7833,17.97,88,100,1.25,TZ,1738801389
480,nora,59.5193,15.0398,-0.64,100,0,1.77,SE,1738801608
481,wuhai,39.6647,106.8122,-9.3,37,0,8.01,CN,1738801609
482,khonsa,27.0167,95.5667,15.57,81,100,1.11,IN,1738801610
483,tarawa,1.419,172.984,26.94,83,54,5.7,KI,1738801611
484,forbes,-33.3833,148.0167,29.63,40,0,2.67,AU,1738801612
485,tazacorte,28.629,-17.9293,17.54,75,100,6.17,ES,1738801613
486,richards bay,-28.783,32.0377,24.56,90,97,5.87,ZA,1738801614
487,barcelos,41.5388,-8.6151,7.82,76,99,2.16,PT,1738801616
488,canico,32.6333,-16.85,17.35,81,20,4.12,PT,1738801617
489,wau,7.7029,27.9953,26.49,26,47,2.44,SS,1738801332
490,praia da vitoria,38.7333,-27.0667,18.14,82,40,3.53,PT,1738801620
491,trenggalek,-8.05,111.7167,24.88,89,89,2.06,ID,1738801621
492,ust-tsilma,65.441,52.1498,-11.27,96,88,2.49,RU,1738801552
493,dudinka,69.4058,86.1778,-23.46,100,98,3.52,RU,1738801623
494,vizinga,61.0749,50.1031,-19.64,100,77,1.14,RU,1738801624
495,long beach,33.767,-118.1892,19.14,83,40,3.13,US,1738801478
496,mocimboa,-11.3167,40.35,24.67,91,100,3.08,MZ,1738801626
497,narvik,68.4384,17.4272,2.99,99,85,6.45,NO,1738801627
498,topchikha,52.8192,83.1185,-15.44,86,4,5.17,RU,1738801628
499,kirkwood,38.5834,-90.4068,2.77,93,100,4.63,US,1738801629
500,aras-asan,8.8908,126.3033,24.78,90,100,1.34,PH,1738801631
501,mahina,-17.5065,-149.489,27.87,74,75,4.12,PF,1738801533
502,arkhangel'sk,64.5401,40.5433,-4.94,86,20,5.0,RU,1738801633
503,alice springs,-23.7,133.8833,32.75,31,70,4.12,AU,1738801634
504,saldanha,-33.0117,17.9442,17.49,69,0,11.87,ZA,1738801635
505,santa ana,33.7456,-117.8678,20.82,69,40,1.54,US,1738801478
506,borzya,50.3833,116.5167,-26.75,95,100,2.78,RU,1738801638
507,tokar,18.4254,37.729,24.58,77,8,3.73,SD,1738801639
508,vilyuysk,63.7553,121.6247,-46.37,100,60,1.43,RU,1738801641
509,bubaque,11.2833,-15.8333,24.68,70,88,3.55,GW,1738801550
510,bayanhongor,46.7167,100.1167,-30.8,88,10,1.48,MN,1738801644
511,general villegas,-35.0328,-63.0125,20.25,85,90,4.35,AR,1738801645
512,kasaragod,12.5,75.0,21.15,87,3,1.95,IN,1738801646
513,pangai,-19.8,-174.35,25.06,94,100,1.03,TO,1738801647
514,alexandria,31.2156,29.9553,14.44,54,73,13.13,EG,1738801632
515,puerto madero,14.7208,-92.4215,30.11,62,20,2.57,MX,1738801649
516,north platte,41.1239,-100.7654,-0.9,64,0,2.57,US,1738801648
517,idri,27.5,13.2667,13.28,35,83,4.98,LY,1738801651
518,choibalsan,48.0667,114.5,-21.87,92,100,7.12,MN,1738801653
519,hilo,19.7297,-155.09,24.41,89,38,0.89,US,1738801654
520,bazarnyy karabulak,52.2683,46.4144,-12.6,97,97,2.66,RU,1738801656
521,galliano,29.4422,-90.2992,21.0,88,75,2.06,US,1738801657
522,donggang,28.9365,114.2259,5.9,66,100,1.29,CN,1738801658
523,paran'ga,56.7039,49.4047,-13.11,95,100,1.96,RU,1738801659
524,isangel,-19.55,169.2667,28.61,73,96,4.22,VU,1738801660
525,bathsheba,13.2167,-59.5167,25.77,75,100,7.43,BB,1738801661
526,ciudad lazaro cardenas,17.9583,-102.2,27.28,61,0,3.35,MX,1738801663
527,kostanay,53.1667,63.5833,-3.84,93,100,5.0,KZ,1738801664
528,alofi,-19.0595,-169.9187,28.94,79,75,5.14,NU,1738801665
529,san sebastian de la gomera,28.0916,-17.1133,18.2,67,20,4.63,ES,1738801667
530,mutare,-18.9707,32.6709,16.55,95,47,0.9,ZW,1738801668
531,newport,51.5877,-2.9984,4.19,89,45,4.14,GB,1738801574
532,reggane,26.7158,0.1714,14.31,31,0,6.85,DZ,1738801671
533,papao,-17.75,-149.55,27.82,77,78,6.48,PF,1738801672
534,obsharovka,53.125,48.8531,-11.11,96,97,2.43,RU,1738801673
535,sarh,9.1429,18.3923,27.51,16,86,3.64,TD,1738801674
536,zhezqazghan,47.7833,67.7667,-12.57,86,6,5.7,KZ,1738801675
537,panna,24.7167,80.2,10.63,39,0,2.49,IN,1738801676
538,keflavik,64.0049,-22.5624,5.24,81,75,20.06,IS,1738801677
539,joacaba,-27.1781,-51.5047,21.6,93,69,1.07,BR,1738801678
540,hualien city,23.9769,121.6044,14.07,91,100,0.37,TW,1738801475
541,rongelap,11.1635,166.8941,26.49,84,77,8.38,MH,1738801680
542,petrovsk-zabaykal'skiy,51.273,108.843,-38.49,100,60,1.52,RU,1738801684
543,magadan,59.5667,150.8,-19.38,69,2,3.86,RU,1738801685
544,santa elena de uairen,4.6167,-61.1333,21.89,73,100,1.7,VE,1738801692
545,kyabe,9.4515,18.9449,27.95,16,99,3.49,TD,1738801693
546,sedrata,36.1287,7.5338,5.24,94,100,1.54,DZ,1738801694
547,ishikawa,26.4233,127.8214,15.19,59,40,1.54,JP,1738801695
548,colares,38.7992,-9.4469,12.41,67,38,2.52,PT,1738801696
549,i-n-salah,27.1935,2.4607,13.33,32,0,8.77,DZ,1738801697
550,nungua,5.6011,-0.0771,28.23,83,40,6.17,GH,1738801698
551,lerdo de tejada,18.6167,-95.5167,23.37,86,4,3.96,MX,1738801699
552,palmer,42.1584,-72.3287,-6.16,59,27,1.2,US,1738801659
553,ardakan,32.31,54.0175,6.85,26,0,0.38,IR,1738801701
554,rawlins,41.7911,-107.2387,4.94,60,100,11.32,US,1738801480
555,kolonia town,6.964,158.206,31.0,70,40,5.14,FM,1738801704
556,lata,40.1629,-8.3327,5.27,81,49,1.41,PT,1738801705
557,karema,-6.8205,30.4389,22.56,79,100,1.0,TZ,1738801706
558,labytnangi,66.6572,66.4183,-16.31,97,100,2.61,RU,1738801707
559,vodnyy,63.5046,53.4095,-17.64,99,77,1.4,RU,1738801708
560,sedro-woolley,48.5039,-122.2361,-0.57,100,100,3.6,US,1738801709
561,qala i naw,34.9874,63.1289,4.51,45,13,3.08,AF,1738801710
562,malvik,63.4333,10.6833,3.77,79,0,4.63,NO,1738801711
563,paraty,-23.2178,-44.7131,23.68,96,100,1.39,BR,1738801712
